[
    {
        "city": "Thiruvanmiyur",
        "admin": "Chennai",
        "country": "India",
        "iso2": "IN",
        "capital": "",
        "address":"Baid Hi Tech Park, 4thFloor ,ECR, Thiruvanmiyur,Chennai - 600041",
        "lat": "12.9611",
        "lng": "80.2592",
        "isoptilogo":"true"
    },
    {
        "city": "Chinna Chokikulam",
        "admin": "Madurai",
        "country": "India",
        "iso2": "IN",
        "capital": "",
        "address":"#20A, V.P.Rathinasamy Nadar Road, B.B. Kulam,Madurai - 625014",
        "lat": "9.9350",
        "lng": "78.1334",
        "isoptilogo":"true"
        
    },
    {
        "city": "Peelamedu",
        "admin": "Coimbatore",
        "country": "India",
        "iso2": "IN",
        "capital": "",
        "address":"PSG-STEP, PSG Tech Campus, Avinashi Rd, Peelamedu, Tamil Nadu 641004",
        "lat": "11.0346",
        "lng": "77.0156",
        "isoptilogo":"true"
    },
    {
        "city": "EC1V 2NX",
        "admin": "London",
        "country": "England",
        "iso2": "EN",
        "capital": "",
        "address":"Kemp House 160 City Road London EC1V 2NX,UNITED KINGDOM",
        "lat": "51.5273",
        "lng": "-0.0897337",
        "isoptilogo":"true"
    },
    {
        "city": "Innovation Centre Sunshine Coast",
        "admin": "Sippy Downs",
        "country": "Australia",
        "iso2": "AUS",
        "capital": "",
        "address":"Innovation Centre, Sunshine Coast University, 90 Sippy Downs Drive, Sippy Downs, 4556 QLD",
        "lat": "-26.7162269",
        "lng": "153.0589854",
        "isoptilogo":"true"
    },
    {
        "city": "Sheikh Zayed Road",
        "admin": "Dubai",
        "country": "Dubai",
        "iso2": "AUS",
        "capital": "",
        "address":"P.O. BOX 16726,Sheikh Zayed Road,Dubai, UAE",
        "lat": "25.276987",
        "lng": "55.296249",
        "isoptilogo":"true"
    },
    {
        "city": "Mumbai",
        "admin": "Maharashtra",
        "country": "India",
        "population_proper": "12691836",
        "iso2": "IN",
        "capital": "admin",
        "lat": "18.987807",
        "lng": "72.836447",
        "population": "2.09 Crore",
        "year": "2022",
        "ispoplogo":"true"
    },
    {
        "city": "Delhi",
        "admin": "Delhi",
        "country": "India",
        "population_proper": "7633213",
        "iso2": "IN",
        "capital": "admin",
        "lat": "28.651952",
        "lng": "77.231495",
        "population": "3.20 Crore",
        "year": "2022",
        "ispoplogo":"true"
    },
    {
        "city": "Kolkata",
        "admin": "West Bengal",
        "country": "India",
        "population_proper": "4631392",
        "iso2": "IN",
        "capital": "admin",
        "lat": "22.562627",
        "lng": "88.363044",
        "population": "1.51 Crore",
        "year": "2022",
        "ispoplogo":"true"
    },
    {
        "city": "Chennai",
        "admin": "Tamil Nadu ",
        "country": "India",
        "population_proper": "4328063",
        "iso2": "IN",
        "capital": "admin",
        "lat": "13.084622",
        "lng": "80.248357",
        "population": "1.15 Crore",
        "year": "2022",
        "ispoplogo":"true"
    },
    {
        "city": "Bengaluru",
        "admin": "Karnataka",
        "country": "India",
        "population_proper": "5104047",
        "iso2": "IN",
        "capital": "admin",
        "lat": "12.977063",
        "lng": "77.587106",
        "population": "1.31 Crore",
        "year": "2022",
        "ispoplogo":"true"
    },
    {
        "city": "Hyderabad",
        "admin": "Andhra Pradesh",
        "country": "India",
        "population_proper": "3597816",
        "iso2": "IN",
        "capital": "admin",
        "lat": "17.384052",
        "lng": "78.456355",
        "population": "1.05 Crore",
        "year": "2022",
        "ispoplogo":"true"
    },
    {
        "city": "Ahmadabad",
        "admin": "Gujarat",
        "country": "India",
        "population_proper": "3719710",
        "iso2": "IN",
        "capital": "minor",
        "lat": "23.025793",
        "lng": "72.587265",
        "population": "84.5 Lakhs",
        "year": "2022",
        "ispoplogo":"true"
    },
    {
        "city": "Pune",
        "admin": "Maharashtra",
        "country": "India",
        "population_proper": "2935744",
        "iso2": "IN",
        "capital": "",
        "lat": "18.513271",
        "lng": "73.849852",
        "population": "69.87 Lakhs",
        "year": "2022",
        "ispoplogo":"true"
    },
    {
        "city": "Surat",
        "admin": "Gujarat",
        "country": "India",
        "population_proper": "2894504",
        "iso2": "IN",
        "capital": "",
        "lat": "21.195944",
        "lng": "72.830232",
        "population": "77.84 Lakhs",
        "year": "2022",
        "ispoplogo":"true"
    },
    {
        "city": "Lucknow",
        "admin": "Uttar Pradesh",
        "country": "India",
        "population_proper": "2472011",
        "iso2": "IN",
        "capital": "admin",
        "lat": "26.839281",
        "lng": "80.923133",
        "population": "38.54 Lakhs",
        "year": "2022",
        "ispoplogo":"true"
    },
    {
        "city": "Nagpur",
        "admin": "Maharashtra",
        "country": "India",
        "population_proper": "2228018",
        "iso2": "IN",
        "capital": "",
        "lat": "21.203096",
        "lng": "79.089284",
        "population": "29.91 Lakhs",
        "year": "2022",
        "ispoplogo":"true"
    },
    {
        "city": "Patna",
        "admin": "Bihar",
        "country": "India",
        "population_proper": "1599920",
        "iso2": "IN",
        "capital": "admin",
        "lat": "25.615379",
        "lng": "85.101027",
        "population": "25.29 Lakhs",
        "year": "2022",
        "ispoplogo":"true"
    },
    {
        "city": "Indore",
        "admin": "Madhya Pradesh",
        "country": "India",
        "population_proper": "1837041",
        "iso2": "IN",
        "capital": "",
        "lat": "22.717736",
        "lng": "75.85859",
        "population": "32.09 Lakhs",
        "year": "2022",
        "ispoplogo":"true"
    },
    {
        "city": "Vadodara",
        "admin": "Gujarat",
        "country": "India",
        "population_proper": "1409476",
        "iso2": "IN",
        "capital": "",
        "lat": "22.299405",
        "lng": "73.208119",
        "population": "22.77 Lakhs",
        "year": "2022",
        "ispoplogo":"true"
    },
    {
        "city": "Bhopal",
        "admin": "Madhya Pradesh",
        "country": "India",
        "population_proper": "1599914",
        "iso2": "IN",
        "capital": "admin",
        "lat": "23.254688",
        "lng": "77.402892",
        "population": "25.05 lakhs",
        "year": "2022",
        "ispoplogo":"true"
    },
    {
        "city": "Coimbatore",
        "admin": "Tamil Nadu",
        "country": "India",
        "population_proper": "959823",
        "iso2": "IN",
        "capital": "",
        "lat": "11.005547",
        "lng": "76.966122",
        "population": "29.35 Lakhs",
        "year": "2022",
        "ispoplogo":"true"
    },
    {
        "city": "Vishakhapatnam",
        "admin": "Andhra Pradesh",
        "country": "India",
        "population_proper": "1063178",
        "iso2": "IN",
        "capital": "",
        "lat": "17.704052",
        "lng": "83.297663",
        "population": "22.78 Lakhs",
        "year": "2022",
        "ispoplogo":"true"
    },
    {
        "city": "Kochi",
        "admin": "Kerala",
        "country": "India",
        "population_proper": "604696",
        "iso2": "IN",
        "capital": "",
        "lat": "9.947743",
        "lng": "76.253802",
        "population": "33.01 Lakhs",
        "year": "2022",
        "ispoplogo":"true"
    }
   
]